{
    "type": "FeatureCollection",
    "features": [{"type":"Feature","geometry":{"type":"Point","coordinates":[-86.279118,32.361538]},"properties":{"state":"Alabama","name":"Montgomery"}},
    {"type":"Feature","geometry":{"type":"Point","coordinates":[-92.331122,34.736009]},"properties":{"state":"Arkansas","name":"Little Rock"}},
    {"type":"Feature","geometry":{"type":"Point","coordinates":[-72.677,41.767]},"properties":{"state":"Connecticut","name":"Hartford"}},
    {"type":"Feature","geometry":{"type":"Point","coordinates":[-75.526755,39.161921]},"properties":{"state":"Delaware","name":"Dover"}},
    {"type":"Feature","geometry":{"type":"Point","coordinates":[-84.27277,30.4518]},"properties":{"state":"Florida","name":"Tallahassee"}},
    {"type":"Feature","geometry":{"type":"Point","coordinates":[-84.39,33.76]},"properties":{"state":"Georgia","name":"Atlanta"}},
    {"type":"Feature","geometry":{"type":"Point","coordinates":[-89.650373,39.78325]},"properties":{"state":"Illinois","name":"Springfield"}},
    {"type":"Feature","geometry":{"type":"Point","coordinates":[-86.147685,39.790942]},"properties":{"state":"Indiana","name":"Indianapolis"}},
    {"type":"Feature","geometry":{"type":"Point","coordinates":[-95.69,39.04]},"properties":{"state":"Kansas","name":"Topeka"}},
    {"type":"Feature","geometry":{"type":"Point","coordinates":[-84.86311,38.197274]},"properties":{"state":"Kentucky","name":"Frankfort"}},
    {"type":"Feature","geometry":{"type":"Point","coordinates":[-91.140229,30.45809]},"properties":{"state":"Louisiana","name":"Baton Rouge"}},
    {"type":"Feature","geometry":{"type":"Point","coordinates":[-69.765261,44.323535]},"properties":{"state":"Maine","name":"Augusta"}},
    {"type":"Feature","geometry":{"type":"Point","coordinates":[-76.501157,38.972945]},"properties":{"state":"Maryland","name":"Annapolis"}},
    {"type":"Feature","geometry":{"type":"Point","coordinates":[-71.0275,42.2352]},"properties":{"state":"Massachusetts","name":"Boston"}},
    {"type":"Feature","geometry":{"type":"Point","coordinates":[-84.5467,42.7335]},"properties":{"state":"Michigan","name":"Lansing"}},
    {"type":"Feature","geometry":{"type":"Point","coordinates":[-90.207,32.32]},"properties":{"state":"Mississippi","name":"Jackson"}},
    {"type":"Feature","geometry":{"type":"Point","coordinates":[-92.189283,38.572954]},"properties":{"state":"Missouri","name":"Jefferson City"}},
    {"type":"Feature","geometry":{"type":"Point","coordinates":[-71.549127,43.220093]},"properties":{"state":"New Hampshire","name":"Concord"}},
    {"type":"Feature","geometry":{"type":"Point","coordinates":[-74.756138,40.221741]},"properties":{"state":"New Jersey","name":"Trenton"}},
    {"type":"Feature","geometry":{"type":"Point","coordinates":[-73.781339,42.659829]},"properties":{"state":"New York","name":"Albany"}},
    {"type":"Feature","geometry":{"type":"Point","coordinates":[-78.638,35.771]},"properties":{"state":"North Carolina","name":"Raleigh"}},
    {"type":"Feature","geometry":{"type":"Point","coordinates":[-83.000647,39.962245]},"properties":{"state":"Ohio","name":"Columbus"}},
    {"type":"Feature","geometry":{"type":"Point","coordinates":[-97.534994,35.482309]},"properties":{"state":"Oklahoma","name":"Oklahoma City"}},
    {"type":"Feature","geometry":{"type":"Point","coordinates":[-76.875613,40.269789]},"properties":{"state":"Pennsylvania","name":"Harrisburg"}},
    {"type":"Feature","geometry":{"type":"Point","coordinates":[-71.422132,41.82355]},"properties":{"state":"Rhode Island","name":"Providence"}},
    {"type":"Feature","geometry":{"type":"Point","coordinates":[-81.035,34]},"properties":{"state":"South Carolina","name":"Columbia"}},
    {"type":"Feature","geometry":{"type":"Point","coordinates":[-86.784,36.165]},"properties":{"state":"Tennessee","name":"Nashville"}},
    {"type":"Feature","geometry":{"type":"Point","coordinates":[-97.75,30.266667]},"properties":{"state":"Texas","name":"Austin"}},
    {"type":"Feature","geometry":{"type":"Point","coordinates":[-72.57194,44.26639]},"properties":{"state":"Vermont","name":"Montpelier"}},
    {"type":"Feature","geometry":{"type":"Point","coordinates":[-77.46,37.54]},"properties":{"state":"Virginia","name":"Richmond"}},
    {"type":"Feature","geometry":{"type":"Point","coordinates":[-81.633294,38.349497]},"properties":{"state":"West Virginia","name":"Charleston"}},
    {"type":"Feature","geometry":{"type":"Point","coordinates":[-80.191788,25.761681]},"properties":{"state":"Florida","name":"Miami"}},
    {"type":"Feature","geometry":{"type":"Point","coordinates":[-81.379,25.538]},"properties":{"state":"Florida","name":"Orlando"}},
    {"type":"Feature","geometry":{"type":"Point","coordinates":[-81.656,30.332]},"properties":{"state":"Florida","name":"Jacksonville"}},
    {"type":"Feature","geometry":{"type":"Point","coordinates":[-83.378,33.961]},"properties":{"state":"Georgia","name":"Athens"}},
    {"type":"Feature","geometry":{"type":"Point","coordinates":[-90.0758,29.9509]},"properties":{"state":"Louisiana","name":"New Orleans"}},
    {"type":"Feature","geometry":{"type":"Point","coordinates":[-80.8401, 35.2216]},"properties":{"state":"North Carolina","name":"Charlotte"}},
    {"type":"Feature","geometry":{"type":"Point","coordinates":[-82.5461, 35.5975]},"properties":{"state":"North Carolina","name":"Asheville"}}]
  }